business_name,category,area,latitude,longitude,instagram_handle,instagram_url,phone,normalized_phone,website,facebook_url,google_maps_cid,verified_date,url
Hotel and Hostel Agapi,hostel,Puerto Viejo,9.656891,-82.743439,agapi.pv,https://www.instagram.com/agapi.pv,+506 8872-7230,+50688727230,,,7492180577056289429,2026-03-14,https://www.puertoviejosatellite.com/en/puerto-viejo/hotel-and-hostel-agapi/
Kalunay Hostel,hostel,Puerto Viejo,9.655647,-82.750317,,,+506 2750 3168,+50627503168,,https://www.facebook.com/KalunayHostel/,,2026-03-24,https://www.puertoviejosatellite.com/en/puerto-viejo/kalunay-hostel/
Pagalu Hostel,hostel,Puerto Viejo,9.65505,-82.754458,,,+506 2750 1930,+50627501930,,https://www.facebook.com/pagaluhostel,16584181162103313991,2026-03-31,https://www.puertoviejosatellite.com/en/puerto-viejo/pagalu-hostel/
Rocking J's Hostel,hostel,Puerto Viejo,9.658081,-82.746314,,,+506 2750-0665,+50627500665,,https://www.facebook.com/rockingjshostel,2849080077759072513,2026-04-03,https://www.puertoviejosatellite.com/en/puerto-viejo/rocking-js-hostel/
Roots Family Hostel,hostel,Puerto Viejo,9.65675,-82.752988,,,,,,https://www.facebook.com/RootsPuertoViejo,15012354361205552676,2026-03-30,https://www.puertoviejosatellite.com/en/puerto-viejo/roots-family-hostel/
Soul Rebel Hostel,hostel,Puerto Viejo,9.657554,-82.751945,soulrebelhostel,https://www.instagram.com/soulrebelhostel,+506 8891 8069,+50688918069,,,1470909826947842376,2026-05-21,https://www.puertoviejosatellite.com/en/puerto-viejo/soul-rebel-hostel/
Black Bamboo,hotel,Puerto Viejo,9.655909,-82.748043,blackbamboo_bedandbreakfast,https://www.instagram.com/blackbamboo_bedandbreakfast,+506 8306 5489,+50683065489,,https://www.facebook.com/Black-Bamboo-892726704246164/,9649993079907777710,2026-03-10,https://www.puertoviejosatellite.com/en/puerto-viejo/black-bamboo/
Cabinas Lika,hotel,Puerto Viejo,9.654925,-82.754631,,,+506 2750 0209,+50627500209,,,1111954385529331281,2026-02-24,https://www.puertoviejosatellite.com/en/puerto-viejo/cabinas-lika/
Cabinas Mitchaelles,hotel,Puerto Viejo,9.65625,-82.751822,,,+506 8913 5713,+50689135713,,https://www.facebook.com/profile.php?id=100057273497525,,2026-03-21,https://www.puertoviejosatellite.com/en/puerto-viejo/cabinas-mitchaelles/
Cabinas Popular,hotel,Puerto Viejo,9.65643,-82.751674,,,+506 2750 0087,+50627500087,,,,2026-03-06,https://www.puertoviejosatellite.com/en/puerto-viejo/cabinas-popular/
Cabinas Talamanca,hotel,Puerto Viejo,9.658405,-82.749143,,,+506 2750 0425,+50627500425,,,,2026-01-07,https://www.puertoviejosatellite.com/en/puerto-viejo/cabinas-talamanca/
Casa Ana Kimba,hotel,Puerto Viejo,9.657087,-82.749872,,,+506 8888 1968,+50688881968,,,13823455026627310391,2026-03-01,https://www.puertoviejosatellite.com/en/puerto-viejo/casa-ana-kimba/
Casa Bohö,hotel,Puerto Viejo,9.657995,-82.748907,casabohocr,https://www.instagram.com/casabohocr,+506 8715 1771,+50687151771,,,8284218495825622354,2026-03-19,https://www.puertoviejosatellite.com/en/puerto-viejo/casa-boho/
La Casa de Rolando,hotel,Puerto Viejo,9.656002,-82.751856,,,+506 2750 0339,+50627500339,,https://www.facebook.com/profile.php?id=100057580384576,,2026-03-24,https://www.puertoviejosatellite.com/en/puerto-viejo/la-casa-de-rolando/
Casa Dolce Vita,hotel,Puerto Viejo,9.658089,-82.751514,,,+506 2750-0207,+50627500207,,https://www.facebook.com/cabinascasadolcevita,,2026-03-14,https://www.puertoviejosatellite.com/en/puerto-viejo/casa-dolce-vita/
Exotic Lodge,hotel,Puerto Viejo,9.658765,-82.749794,,,+506 6296 7557,+50662967557,,,8353070716309943884,2026-03-08,https://www.puertoviejosatellite.com/en/puerto-viejo/exotic-lodge/
Family Hotel,hotel,Puerto Viejo,9.657278,-82.750789,familyhotelpv,https://www.instagram.com/familyhotelpv,+506 8880 0338,+50688800338,,,16910431421739661204,2025-06-09,https://www.puertoviejosatellite.com/en/puerto-viejo/family-hotel/
Hostal Cecilia,hotel,Puerto Viejo,9.657362,-82.746545,,,+506 2750 0302,+50627500302,,https://www.facebook.com/profile.php?id=100063539262338,11938523891103686222,2026-03-22,https://www.puertoviejosatellite.com/en/puerto-viejo/hostal-cecilia/
Hotel Casa Vito,hotel,Puerto Viejo,9.657561,-82.745573,,,+506 8697 7557,+50686977557,,https://www.facebook.com/hotelcasavito,9002517690753030013,2026-03-19,https://www.puertoviejosatellite.com/en/puerto-viejo/hotel-casa-vito/
Hotel Infiniti,hotel,Puerto Viejo,9.655938,-82.75219,hotel.infiniti,https://www.instagram.com/hotel.infiniti,+506 6055-5149,+50660555149,,,17030940291864121871,2026-03-24,https://www.puertoviejosatellite.com/en/puerto-viejo/hotel-infiniti/
Hotel Mandacarú,hotel,Puerto Viejo,9.658684,-82.750289,hotelmandacaru.puertoviejo,https://www.instagram.com/hotelmandacaru.puertoviejo,+506 2750-0232,+50627500232,,https://www.facebook.com/people/Hotel-Mandacar%C3%BA-Puerto-Viejo/61557680849228/,11442698979892556145,2026-03-15,https://www.puertoviejosatellite.com/en/puerto-viejo/hotel-mandacaru/
Hotel Pura Vida,hotel,Puerto Viejo,9.65532,-82.753315,,,+506 8570 9768,+50685709768,,https://www.facebook.com/Hotel-Pura-Vida-130527740457772/,5253894431951431984,2026-03-21,https://www.puertoviejosatellite.com/en/puerto-viejo/hotel-pura-vida/
Hotel Tropical,hotel,Puerto Viejo,9.656609,-82.751619,,,+506 2750 2064,+50627502064,,https://www.facebook.com/rolfblancketours,,2026-04-02,https://www.puertoviejosatellite.com/en/puerto-viejo/hotel-tropical/
Namu Garden Hotel and Spa,hotel,Puerto Viejo,9.653123,-82.754398,namugardenhotelspa,https://www.instagram.com/namugardenhotelspa,+506 8789 6070,+50687896070,,https://www.facebook.com/profile.php?id=61550604153566,18141110668997261824,2026-03-28,https://www.puertoviejosatellite.com/en/puerto-viejo/namu-garden-hotel-and-spa/
Sueño Grande Bed and Breakfast,hotel,Puerto Viejo,9.657792,-82.750629,suenograndepv,https://www.instagram.com/suenograndepv,+506 7205 9392,+50672059392,,https://www.facebook.com/DreamBiginPV,5641578059331896840,2026-04-01,https://www.puertoviejosatellite.com/en/puerto-viejo/sueno-grande-bed-and-breakfast/
Umami Hotel Garden Spa,hotel,Puerto Viejo,9.655954,-82.750633,,,+506 2750 3200,+50627503200,,https://www.facebook.com/umamihotel,9701222676819002481,2026-03-26,https://www.puertoviejosatellite.com/en/puerto-viejo/umami-hotel-garden-spa/
"Orgánico Punta Riel - Hone Creek, Limón, Costa Rica",hotel,Hone Creek,9.671793,-82.80429,,,+506 8828 1426,+50688281426,,,2005484154619350459,2025-10-02,https://www.puertoviejosatellite.com/en/hone-creek/organico-punta-riel/
"Rancho Tranquilo - Hone Creek, Limón, Costa Rica",hotel,Hone Creek,9.657372,-82.801176,rt_hospedaje,https://www.instagram.com/rt_hospedaje,+506 2756 8198,+50627568198,,https://www.facebook.com/profile.php?id=100085466981177,3497932895823071906,2025-10-03,https://www.puertoviejosatellite.com/en/hone-creek/rancho-tranquilo/
"Samasati Yoga and Wellness Retreat - Hone Creek, Limón, Costa Rica",hotel,Hone Creek,9.65257,-82.816679,samasati_costa_rica,https://www.instagram.com/samasati_costa_rica,+506 8428 3918,+50684283918,http://www.anrdoezrs.net/links/2369666/type/dlg/https://www.tripadvisor.com/Hotel_Review-g309265-d300508-Reviews-Samasati_Yoga_Wellness_Retreat-Puerto_Viejo_de_Talamanca_Province_of_Limon.html,,,2025-04-17,https://www.puertoviejosatellite.com/en/hone-creek/samasati-yoga-and-wellness-retreat/
"Villa Mena Apartments - Hone Creek, Limón, Costa Rica",hotel,Hone Creek,9.633563,-82.811149,,,+506 8304 5966,+50683045966,,https://www.facebook.com/Villamena2013,,2024-06-30,https://www.puertoviejosatellite.com/en/hone-creek/villa-mena-apartments/
Caribe Sur Real Estate,real_estate,Puerto Viejo,9.657328,-82.753803,caribesurlifestylerealty,https://www.instagram.com/caribesurlifestylerealty,+506 8701 6816,+50687016816,,,,2025-12-05,https://www.puertoviejosatellite.com/en/puerto-viejo/caribe-sur-real-estate/
Coldwell Banker Caribe,real_estate,Puerto Viejo,9.658603,-82.749288,coldwellbankercaribe,https://www.instagram.com/coldwellbankercaribe,+506 7171 8812,+50671718812,,https://www.facebook.com/coldwellbankercaribe,49080311362860494,2026-02-25,https://www.puertoviejosatellite.com/en/puerto-viejo/coldwell-banker-caribe/
Gigi O Restaurant,restaurant,Puerto Viejo,9.658296,-82.752243,wearegigio,https://www.instagram.com/wearegigio,+506 8676 7889,+50686767889,https://wearegigi.com/gigi-o,https://www.facebook.com/wearegigio,4732141069441829785,2026-03-27,https://www.puertoviejosatellite.com/en/puerto-viejo/gigi-o-restaurant/
Cacao Huasi,restaurant,Puerto Viejo,9.656104,-82.755883,cacaohuasi,https://www.instagram.com/cacaohuasi,+506 8910 9318,+50689109318,,,1242408439996904931,2026-03-28,https://www.puertoviejosatellite.com/en/puerto-viejo/cacao-huasi/
Café Gustitos,restaurant,Puerto Viejo,9.656438,-82.754985,,,,,,,3787124603348818142,2026-02-15,https://www.puertoviejosatellite.com/en/puerto-viejo/cafe-gustitos/
Cafe Rico,restaurant,Puerto Viejo,9.657288,-82.752854,cafericocostarica,https://www.instagram.com/cafericocostarica,+506 2750 0510,+50627500510,http://www.anrdoezrs.net/links/2369666/type/dlg/https://www.tripadvisor.com/Restaurant_Review-g309265-d3169883-Reviews-Cafe_Rico-Puerto_Viejo_de_Talamanca_Province_of_Limon.html,https://www.facebook.com/CafeRicoCostaRica,5741623948918730601,2026-03-24,https://www.puertoviejosatellite.com/en/puerto-viejo/cafe-rico/
Cafe Viejo,restaurant,Puerto Viejo,9.656812,-82.754323,cafeviejo_cr,https://www.instagram.com/cafeviejo_cr,+506 2750 0817,+50627500817,http://www.anrdoezrs.net/links/2369666/type/dlg/https://www.tripadvisor.com/Restaurant_Review-g309265-d3850728-Reviews-Cafe_Viejo_Restaurante_Pizzeria-Puerto_Viejo_de_Talamanca_Province_of_Limon.html,https://www.facebook.com/cafeviejocr,16024433122991526617,2026-03-24,https://www.puertoviejosatellite.com/en/puerto-viejo/cafe-viejo/
Chaman Mercadito,restaurant,Puerto Viejo,9.657772,-82.754148,chaman_mercadito,https://www.instagram.com/chaman_mercadito,,,,https://www.facebook.com/chaman.mercadito,2968574655178095232,2025-11-08,https://www.puertoviejosatellite.com/en/puerto-viejo/chaman-mercadito/
Chile Rojo,restaurant,Puerto Viejo,9.657533,-82.752881,best_chile_rojo,https://www.instagram.com/best_chile_rojo,+506 2750 0421,+50627500421,http://www.anrdoezrs.net/links/2369666/type/dlg/https://www.tripadvisor.com/Restaurant_Review-g309265-d1509837-Reviews-Chile_Rojo-Puerto_Viejo_de_Talamanca_Province_of_Limon.html,https://www.facebook.com/Chile-Rojo-92702585879/,2449275981368445735,2026-03-10,https://www.puertoviejosatellite.com/en/puerto-viejo/chile-rojo/
Chill and Cheese Snackbar,restaurant,Puerto Viejo,9.658864,-82.75098,,,+506 8959 0020,+50689590020,,https://www.facebook.com/profile.php?id=100063772622858,15977758811209084867,2026-03-06,https://www.puertoviejosatellite.com/en/puerto-viejo/chill-and-cheese-snackbar/
Como en la Gloria,restaurant,Puerto Viejo,9.658707,-82.749128,comoenlagloriapuertoviejo,https://www.instagram.com/comoenlagloriapuertoviejo,+506 8584 8190,+50685848190,http://www.anrdoezrs.net/links/2369666/type/dlg/https://www.tripadvisor.com/Restaurant_Review-g1212465-d13339992-Reviews-Como_en_la_Gloria-Cocles_Puerto_Viejo_de_Talamanca_Province_of_Limon.html,https://www.facebook.com/comoenlagloriapv,,2026-01-17,https://www.puertoviejosatellite.com/en/puerto-viejo/como-en-la-gloria/
De Gustibus Bakery,restaurant,Puerto Viejo,9.658911,-82.750145,bakerydegustibus,https://www.instagram.com/bakerydegustibus,+506 2756 8397,+50627568397,http://www.anrdoezrs.net/links/2369666/type/dlg/https://www.tripadvisor.com/Restaurant_Review-g309265-d7960369-Reviews-De_Gustibus_Bakery-Puerto_Viejo_de_Talamanca_Province_of_Limon.html,https://www.facebook.com/degustibusbakery,9034432070677152199,2026-03-16,https://www.puertoviejosatellite.com/en/puerto-viejo/de-gustibus-bakery/
El Dragón,restaurant,Puerto Viejo,9.658958,-82.751234,,,+506 6410 0334,+50664100334,https://www.anrdoezrs.net/links/2369666/type/dlg/https://www.tripadvisor.com/Restaurant_Review-g309265-d19939214-Reviews-El_Dragon-Puerto_Viejo_de_Talamanca_Province_of_Limon.html,https://www.facebook.com/ElDragon.pv,15307063167947850855,2026-03-22,https://www.puertoviejosatellite.com/en/puerto-viejo/el-dragon/
Grow Beachfront Restaurant,restaurant,Puerto Viejo,9.657929,-82.75513,growpuertoviejo,https://www.instagram.com/growpuertoviejo,+506 8370 6334,+50683706334,,https://www.facebook.com/Grow.pv,11456769578958313273,2026-03-06,https://www.puertoviejosatellite.com/en/puerto-viejo/grow-beachfront-restaurant/
Hot Rocks,restaurant,Puerto Viejo,9.657505,-82.753948,,,+506 8708 3183,+50687083183,http://www.anrdoezrs.net/links/2369666/type/dlg/https://www.tripadvisor.com/Restaurant_Review-g309265-d7129145-Reviews-Hot_Rocks_Restaurant_Bar_Bands_Musicians-Puerto_Viejo_de_Talamanca_Province_of_Li.html,https://www.facebook.com/HOT-ROCKS-228927457295616,17658715504289400300,2026-02-04,https://www.puertoviejosatellite.com/en/puerto-viejo/hot-rocks/
Island City Wingz N Tingz,restaurant,Puerto Viejo,9.658425,-82.751827,Islandcitypuertoviejo,https://www.instagram.com/Islandcitypuertoviejo,+506 7253 1188,+50672531188,,https://www.facebook.com/Islandcityenglish,4325961701237139165,2026-02-17,https://www.puertoviejosatellite.com/en/puerto-viejo/island-city-wingz-n-tingz/
Joe Snack Point,restaurant,Puerto Viejo,9.653914,-82.754626,,,+506 2750 0379,+50627500379,,https://www.facebook.com/joe.snackpoint,13515529363295537137,2026-03-09,https://www.puertoviejosatellite.com/en/puerto-viejo/joe-snack-point/
Lidia's Place,restaurant,Puerto Viejo,9.656085,-82.752147,,,+506 2750 0598,+50627500598,http://www.anrdoezrs.net/links/2369666/type/dlg/https://www.tripadvisor.com/Restaurant_Review-g309265-d1975179-Reviews-Restaurante_Lidia_s_Place-Puerto_Viejo_de_Talamanca_Province_of_Limon.html,,17217796188356524660,2026-02-06,https://www.puertoviejosatellite.com/en/puerto-viejo/lidias-place/
Madre Tierra,restaurant,Puerto Viejo,9.657614,-82.755151,,,+506 2750 2083,+50627502083,http://www.anrdoezrs.net/links/2369666/type/dlg/https://www.tripadvisor.com/Restaurant_Review-g309265-d6457445-Reviews-Madre_Tierra-Puerto_Viejo_de_Talamanca_Province_of_Limon.html,https://www.facebook.com/madretierrapuerto,18001671055676159782,2026-02-27,https://www.puertoviejosatellite.com/en/puerto-viejo/madre-tierra/
McCloud's Munchies,restaurant,Puerto Viejo,9.658811,-82.751462,mccloudsmunchies,https://www.instagram.com/mccloudsmunchies,,,,,15751918209348819421,2025-12-27,https://www.puertoviejosatellite.com/en/puerto-viejo/mcclouds-munchies/
La Parada Cafeteria,restaurant,Puerto Viejo,9.656646,-82.756,,,+506 2750 0558,+50627500558,,,17702928579971376532,2026-01-31,https://www.puertoviejosatellite.com/en/puerto-viejo/la-parada-cafeteria/
The Point Smash Burgers,restaurant,Puerto Viejo,9.656961,-82.754354,thepoint.pv,https://www.instagram.com/thepoint.pv,+506 2756 8491,+50627568491,,https://www.facebook.com/profile.php?id=61572556746683,4697431774628734956,2026-03-27,https://www.puertoviejosatellite.com/en/puerto-viejo/the-point-smash-burgers/
Puerto Pirata,restaurant,Puerto Viejo,9.657761,-82.755307,puertopirata.tikibar,https://www.instagram.com/puertopirata.tikibar,+506 2750 0459,+50627500459,https://www.tkqlhce.com/click-2369666-11552042?url=https%3A%2F%2Fwww.tripadvisor.com%2FRestaurant_Review-g309265-d3930312-Reviews-Puerto_Pirata_Beach-Puerto_Viejo_de_Talamanca_Province_of_Limon.html,https://www.facebook.com/puertopirata.tikibar,15140435167806983758,2026-04-03,https://www.puertoviejosatellite.com/en/puerto-viejo/puerto-pirata/
Restaurante Bar Tamara,restaurant,Puerto Viejo,9.657281,-82.753849,tamararestaurante,https://www.instagram.com/tamararestaurante,,,http://www.anrdoezrs.net/links/2369666/type/dlg/https://www.tripadvisor.com/Restaurant_Review-g309265-d2316363-Reviews-Restaurante_Tamara-Puerto_Viejo_de_Talamanca_Province_of_Limon.html,,4015454567044906676,2026-03-07,https://www.puertoviejosatellite.com/en/puerto-viejo/restaurante-bar-tamara/
Restaurante Nema,restaurant,Puerto Viejo,9.658618,-82.751555,,,+506 2750-0085,+50627500085,http://www.anrdoezrs.net/links/2369666/type/dlg/https://www.tripadvisor.com/Restaurant_Review-g309265-d8697383-Reviews-Nema_Bar_y_Restaurante-Puerto_Viejo_de_Talamanca_Province_of_Limon.html,,7919869702409355075,2026-03-27,https://www.puertoviejosatellite.com/en/puerto-viejo/restaurante-nema/
Restaurante Riquísimo,restaurant,Puerto Viejo,9.657389,-82.753954,,,+506 2750 0367,+50627500367,https://www.tkqlhce.com/click-2369666-11552042?url=https%3A%2F%2Fwww.tripadvisor.com%2FRestaurant_Review-g309265-d4163712-Reviews-Soda_riquisimo-Puerto_Viejo_de_Talamanca_Province_of_Limon.html,https://www.facebook.com/Restaurante-Riqu%C3%ADsimo-CR-333747447514616/,9970954456776975626,2026-02-27,https://www.puertoviejosatellite.com/en/puerto-viejo/restaurante-riquisimo/
El Sabor Tico,restaurant,Puerto Viejo,9.656665,-82.754633,,,+506 8876 5020,+50688765020,,,7269480960058336334,2026-03-09,https://www.puertoviejosatellite.com/en/puerto-viejo/el-sabor-tico/
Samurai Fusion,restaurant,Puerto Viejo,9.658118,-82.751913,samurai_wolaba,https://www.instagram.com/samurai_wolaba,+506 8770 7502,+50687707502,https://www.dpbolvw.net/click-2369666-11552042?url=https%3A%2F%2Fwww.tripadvisor.com%2FRestaurant_Review-g309265-d24135534-Reviews-Samuray_Fusion-Puerto_Viejo_de_Talamanca_Province_of_Limon.html,https://www.facebook.com/samuraiwolaba/,8353793036632461139,2025-05-09,https://www.puertoviejosatellite.com/en/puerto-viejo/samurai-fusion/
SOCA Restaurant,restaurant,Puerto Viejo,9.657759,-82.752478,socarestaurant,https://www.instagram.com/socarestaurant,+506 8505 1414,+50685051414,https://www.jdoqocy.com/click-2369666-11552042?url=https%3A%2F%2Fwww.tripadvisor.com%2FRestaurant_Review-g309265-d23838043-Reviews-Soca-Puerto_Viejo_de_Talamanca_Province_of_Limon.html,https://www.facebook.com/wahappencaribe,12232799133081119632,2026-03-20,https://www.puertoviejosatellite.com/en/puerto-viejo/soca-restaurant/
Soda Shekiná,restaurant,Puerto Viejo,9.654707,-82.753821,,,+506 2750 0549,+50627500549,http://www.anrdoezrs.net/links/2369666/type/dlg/https://www.tripadvisor.com/Restaurant_Review-g309265-d12580946-Reviews-Soda_Shekina-Puerto_Viejo_de_Talamanca_Province_of_Limon.html,,11963087103971381770,2026-01-01,https://www.puertoviejosatellite.com/en/puerto-viejo/soda-shekina/
Soulsurfer,restaurant,Puerto Viejo,9.656119,-82.753694,soulsurfer_puertoviejo,https://www.instagram.com/soulsurfer_puertoviejo,+506 8657 4263,+50686574263,,https://www.facebook.com/soulsurferpuertoviejo,5800050942790570331,2026-03-07,https://www.puertoviejosatellite.com/en/puerto-viejo/soulsurfer/
Todo Es Posible,restaurant,Puerto Viejo,9.657728,-82.745936,,,+506 2756 8484,+50627568484,,,,2026-03-20,https://www.puertoviejosatellite.com/en/puerto-viejo/todo-es-posible/
Clan Vibes Club,restaurant,Puerto Viejo,9.65777,-82.754227,clanvibes_club,https://www.instagram.com/clanvibes_club,,,,,7459202686588347907,2026-02-13,https://www.puertoviejosatellite.com/en/puerto-viejo/clan-vibes-club/
Salsa Brava Beach Bar,restaurant,Puerto Viejo,9.659072,-82.751347,salsabravapuertoviejo,https://www.instagram.com/salsabravapuertoviejo,+506 8317 4029,+50683174029,http://www.anrdoezrs.net/links/2369666/type/dlg/https://www.tripadvisor.com/Restaurant_Review-g309265-d8368375-Reviews-Salsa_Brava-Puerto_Viejo_de_Talamanca_Province_of_Limon.html,https://www.facebook.com/SalsaBravaBeachBar,15009365918254941244,2026-03-09,https://www.puertoviejosatellite.com/en/puerto-viejo/salsa-brava-beach-bar/
7 Ice Creams,restaurant,Puerto Viejo,9.657013,-82.754243,7ice_creams,https://www.instagram.com/7ice_creams,+506 8866 8865,+50688668865,,,13904096282139076225,2026-02-16,https://www.puertoviejosatellite.com/en/puerto-viejo/7-ice-creams/
Bloom Cafe & Donas,restaurant,Puerto Viejo,9.655791,-82.75402,bloomdonas,https://www.instagram.com/bloomdonas,+506 8661 2372,+50686612372,,,3622931891880684663,2026-02-11,https://www.puertoviejosatellite.com/en/puerto-viejo/bloom-cafe-donas/
BOA Coworking,restaurant,Puerto Viejo,9.657341,-82.752241,boapuertoviejo,https://www.instagram.com/boapuertoviejo,,,,,9729510481461644038,2026-01-09,https://www.puertoviejosatellite.com/en/puerto-viejo/boa-coworking/
Bread What What,restaurant,Puerto Viejo,9.658457,-82.752243,breadwhatwhatcoffee,https://www.instagram.com/breadwhatwhatcoffee,+506 8814 8984,+50688148984,,https://www.facebook.com/p/Bread-what-what-100076592611660/,15524106146082438383,2026-03-24,https://www.puertoviejosatellite.com/en/puerto-viejo/bread-what-what/
Calipso,restaurant,Puerto Viejo,9.657299,-82.754043,calipso.caribe,https://www.instagram.com/calipso.caribe,,,,,8483815143288546232,2026-03-08,https://www.puertoviejosatellite.com/en/puerto-viejo/calipso/
Iriria Specialty Coffee Shop,restaurant,Puerto Viejo,9.658533,-82.75219,iriria_cafeteria,https://www.instagram.com/iriria_cafeteria,+506 8707 0543,+50687070543,,,17441244772065149373,2026-03-21,https://www.puertoviejosatellite.com/en/puerto-viejo/iriria-specialty-coffee-shop/
Juice for Life Wolaba,restaurant,Puerto Viejo,9.656813,-82.753179,juiceforlifewolaba,https://www.instagram.com/juiceforlifewolaba,+506 7043 9694,+50670439694,,,543073464450059371,2026-02-13,https://www.puertoviejosatellite.com/en/puerto-viejo/juice-for-life-wolaba/
Lulu's Place,restaurant,Puerto Viejo,9.656114,-82.753697,,,+506 8627 1937,+50686271937,,https://www.facebook.com/luluberlugaleria,3766450624092844612,2026-03-24,https://www.puertoviejosatellite.com/en/puerto-viejo/lulus-place/
Pan Pay,restaurant,Puerto Viejo,9.658052,-82.754928,,,+506 2750 0081,+50627500081,http://www.anrdoezrs.net/links/2369666/type/dlg/https://www.tripadvisor.com/Restaurant_Review-g309265-d7278300-Reviews-Pan_Pay-Puerto_Viejo_de_Talamanca_Province_of_Limon.html,,1569445318757953644,2026-01-27,https://www.puertoviejosatellite.com/en/puerto-viejo/pan-pay/
Pidiendo Cacao,restaurant,Puerto Viejo,9.658906,-82.749544,pidiendocacaocr,https://www.instagram.com/pidiendocacaocr,,,,,4039924463453362188,2026-03-31,https://www.puertoviejosatellite.com/en/puerto-viejo/pidiendo-cacao/
Automotriz Danny,services,Puerto Viejo,9.656969,-82.751273,,,+506 2750-0185,+50627500185,,https://www.facebook.com/Taller-Danny-Puerto-Viejo-1603755879903788/,,2026-02-06,https://www.puertoviejosatellite.com/en/puerto-viejo/automotriz-danny/
"Servicentro Hone Creek - Hone Creek, Limón, Costa Rica",services,Hone Creek,9.658361,-82.79836,,,,,,,,2025-10-01,https://www.puertoviejosatellite.com/en/hone-creek/servicentro-hone-creek/
Alcoholics Anonymous,services,Puerto Viejo,9.657325,-82.754779,,,,,https://www.costaricaaa.com/puerto-viejo,,,2025-06-28,https://www.puertoviejosatellite.com/en/puerto-viejo/alcoholics-anonymous/
Casa de la Cultura,services,Puerto Viejo,9.657034,-82.754474,casadelaculturapv,https://www.instagram.com/casadelaculturapv,+506 2750 0883,+50627500883,,https://www.facebook.com/profile.php?id=61552275898554,8404229099084152409,2026-03-18,https://www.puertoviejosatellite.com/en/puerto-viejo/casa-de-la-cultura/
Catholic Church,services,Puerto Viejo,9.657354,-82.755123,,,,,,,4409251360524216865,2026-02-24,https://www.puertoviejosatellite.com/en/puerto-viejo/catholic-church/
BAC Credomatic ATM,services,Puerto Viejo,9.655913,-82.754856,,,,,,,17219624679350508173,2026-01-10,https://www.puertoviejosatellite.com/en/puerto-viejo/bac-credomatic-atm/
Banco Nacional,services,Puerto Viejo,9.655162,-82.755505,,,+506 2212 2000,+50622122000,,,1353920052832893881,2026-02-27,https://www.puertoviejosatellite.com/en/puerto-viejo/banco-nacional/
Centro Médico Aruma,services,Puerto Viejo,9.653393,-82.761336,centromedicoaruma,https://www.instagram.com/centromedicoaruma,+506 8655 5082,+50686555082,,https://www.facebook.com/centromedicoaruma,331886285113007367,2026-03-20,https://www.puertoviejosatellite.com/en/puerto-viejo/centro-medico-aruma/
Clínica de Especialidades Médicas San Gabriel,services,Puerto Viejo,9.655084,-82.753838,,,+506 2750 0848,+50627500848,,https://www.facebook.com/ClinicaDeEspecialidadesMedicasSanGabriel,13864196564288057579,2026-02-02,https://www.puertoviejosatellite.com/en/puerto-viejo/clinica-de-especialidades-medicas-san-gabriel/
Clínica Dental Yani,services,Puerto Viejo,9.656159,-82.746072,,,+506 8868 1439,+50688681439,,https://www.facebook.com/DentalYani,15014437406187691360,2025-09-10,https://www.puertoviejosatellite.com/en/puerto-viejo/clinica-dental-yani/
"Hone Creek Clinic - Hone Creek, Limón, Costa Rica",services,Hone Creek,9.652862,-82.798144,,,+506 2756-8022,+50627568022,,,8437643615710257437,2025-06-14,https://www.puertoviejosatellite.com/en/hone-creek/hone-creek-clinic/
Laboratorio Bioclinic,services,Puerto Viejo,9.657069,-82.753918,,,+506 2750 0450,+50627500450,,https://www.facebook.com/Laboratorio-Bioclinic-Puerto-Viejo-380254682030300/,2511122372422782678,2026-03-25,https://www.puertoviejosatellite.com/en/puerto-viejo/laboratorio-bioclinic/
Lavandería La Estrella,services,Puerto Viejo,9.657528,-82.746558,,,+506 8719 5961,+50687195961,,,,2026-02-28,https://www.puertoviejosatellite.com/en/puerto-viejo/lavanderia-la-estrella/
"We Do Laundry - Hone Creek, Limón, Costa Rica",services,Hone Creek,9.657919,-82.797388,,,+506 8363 5804,+50683635804,,https://www.facebook.com/wedolaundrycr,,2025-09-28,https://www.puertoviejosatellite.com/en/hone-creek/we-do-laundry/
Aloha Skincare and Wellness,services,Puerto Viejo,9.656664,-82.754087,aloha.spaestetica,https://www.instagram.com/aloha.spaestetica,+506 8310 1665,+50683101665,,https://www.facebook.com/Aloha-Caribe-Wellness-187001214674982/,565813449899308633,2026-01-24,https://www.puertoviejosatellite.com/en/puerto-viejo/aloha-skincare-and-wellness/
Ambar Tattoo Space,services,Puerto Viejo,9.658929,-82.749726,ambar.tattoospace,https://www.instagram.com/ambar.tattoospace,+506 7163 1076,+50671631076,,,3494255912740671382,2026-03-12,https://www.puertoviejosatellite.com/en/puerto-viejo/ambar-tattoo-space/
Caribe Love Tattoo,services,Puerto Viejo,9.655737,-82.754061,caribelovetattoo,https://www.instagram.com/caribelovetattoo,+506 6006 2347,+50660062347,,https://www.facebook.com/CaribeLoveTattoo,16552705196228924381,2026-03-03,https://www.puertoviejosatellite.com/en/puerto-viejo/caribe-love-tattoo/
Earth to Skin,services,Puerto Viejo,9.64952,-82.737008,,,,,,https://www.facebook.com/profile.php?id=61577075530159,,2026-03-26,https://www.puertoviejosatellite.com/en/puerto-viejo/earth-to-skin/
Mendez Barber Shop,services,Puerto Viejo,9.638165,-82.71215,mendezbarbershop_cr,https://www.instagram.com/mendezbarbershop_cr,+506 8363 8676,+50683638676,,https://www.facebook.com/Roots-Barber-Shop-337786386865648/,5529719550027810747,2025-12-18,https://www.puertoviejosatellite.com/en/puerto-viejo/mendez-barber-shop/
Old Harbour Gym,services,Puerto Viejo,9.657679,-82.746598,,,,,,,10525434517969119413,2026-03-24,https://www.puertoviejosatellite.com/en/puerto-viejo/old-harbour-gym/
Pure Jungle Spa,services,Puerto Viejo,9.630028,-82.721203,purejunglespa,https://www.instagram.com/purejunglespa,+506 2756 8413,+50627568413,http://www.anrdoezrs.net/links/2369666/type/dlg/https://www.tripadvisor.com/Attraction_Review-g309265-d1427184-Reviews-Pure_Jungle_Spa-Puerto_Viejo_de_Talamanca_Province_of_Limon.html,https://www.facebook.com/PUREJungleSpa,,2026-02-20,https://www.puertoviejosatellite.com/en/puerto-viejo/pure-jungle-spa/
Svastha Yoga & Ayurveda Café,services,Puerto Viejo,9.656252,-82.755525,svasthacr,https://www.instagram.com/svasthacr,+506 6423 3726,+50664233726,,https://www.facebook.com/svasthacr,8317123943686846949,2026-03-22,https://www.puertoviejosatellite.com/en/puerto-viejo/svastha-yoga-and-ayurveda-cafe/
La Tinta Tropical,services,Puerto Viejo,9.657462,-82.754819,latintatropical,https://www.instagram.com/latintatropical,+506 8948 9183,+50689489183,,https://www.facebook.com/damiancalandra,3486593641699246622,2026-04-02,https://www.puertoviejosatellite.com/en/puerto-viejo/la-tinta-tropical/
Central de Mascotas,services,Puerto Viejo,9.652144,-82.797593,,,+506 2750 0529,+50627500529,,,7240010806083907203,2025-10-17,https://www.puertoviejosatellite.com/en/puerto-viejo/central-de-mascotas/
Clínica Veterinaria Arroyo y Solano,services,Puerto Viejo,9.736005,-82.841876,,,+506 2756 8306,+50627568306,,https://www.facebook.com/veterinariaarroyosolano,15400950969629438728,2026-03-24,https://www.puertoviejosatellite.com/en/puerto-viejo/clinica-veterinaria-arroyo-y-solano/
"Clinica Veterinaria Green Vet - Hone Creek, Limón, Costa Rica",services,Hone Creek,9.655948,-82.754818,greenvet.honecreek,https://www.instagram.com/greenvet.honecreek,+506 7005 7723,+50670057723,,https://www.facebook.com/Green-Vet-Cahuita-530145661238959/,13987590870242443651,2025-10-04,https://www.puertoviejosatellite.com/en/hone-creek/clinica-veterinaria-green-vet/
Ciclo Tuanis,services,Puerto Viejo,9.644746,-82.728838,,,+506 2750 3222,+50627503222,,,13918274438659118327,2026-02-25,https://www.puertoviejosatellite.com/en/puerto-viejo/ciclo-tuanis/
Cerrajería Paris,services,Puerto Viejo,9.747332,-82.859364,cerrajeriaparis,https://www.instagram.com/cerrajeriaparis,+506 6085 1666,+50660851666,,https://www.facebook.com/p/Cerrajeria-Par%C3%ADs-Puerto-Viejo-100064036263764/,6040828318272438452,2025-10-27,https://www.puertoviejosatellite.com/en/puerto-viejo/cerrajeria-paris/
PC Caribe Soluciones Informáticas,services,Puerto Viejo,9.637428,-82.707263,,,+506 6018 0708,+50660180708,,https://www.facebook.com/pccaribe2012,15750093614330541423,2025-09-15,https://www.puertoviejosatellite.com/en/puerto-viejo/pc-caribe-soluciones-informaticas/
Eñe Spanish Teachers,services,Puerto Viejo,9.655259,-82.75327,,,+506 7286 5336,+50672865336,,,8716363808718267189,2025-11-20,https://www.puertoviejosatellite.com/en/puerto-viejo/ene-spanish-teachers/
Spanish by the Sea,services,Puerto Viejo,9.756165,-82.867946,,,+506 8799 8992,+50687998992,,https://www.facebook.com/Spanish-by-the-Sea-Puerto-Viejo-Costa-Rica-1443355352604549/,439116677363621136,2025-05-12,https://www.puertoviejosatellite.com/en/puerto-viejo/spanish-by-the-sea/
Elena De Luca Studio,services,Puerto Viejo,9.651797,-82.738416,elenadelucastudio,https://www.instagram.com/elenadelucastudio,+506 7264 7530,+50672647530,,,4794006171803715674,2026-03-18,https://www.puertoviejosatellite.com/en/puerto-viejo/elena-de-luca-studio/
Sea Breeze Events,services,Puerto Viejo,9.657494,-82.753373,seabreezeevents,https://www.instagram.com/seabreezeevents,,,,https://www.facebook.com/seabreezeeventscr,,2026-04-03,https://www.puertoviejosatellite.com/en/puerto-viejo/sea-breeze-events/
Surf the Jungle Surf School Adventures,services,Puerto Viejo,9.504722,-82.615203,surfthejungle_surfschool,https://www.instagram.com/surfthejungle_surfschool,+506 8710 4148,+50687104148,http://www.anrdoezrs.net/links/2369666/type/dlg/https://www.tripadvisor.com/Attraction_Review-g309265-d10797817-Reviews-Surf_the_Jungle_Surf_School_Adventures-Puerto_Viejo_de_Talamanca_Province_of_Lim.html,https://www.facebook.com/surfthejungle,14229054643032701360,2026-02-16,https://www.puertoviejosatellite.com/en/puerto-viejo/surf-the-jungle-surf-school-adventures/
Aloe Boutique,shopping,Puerto Viejo,9.656082,-82.755033,,,,,,https://www.facebook.com/Aloe-Tienda-108353358021927/,6004428022633356945,2026-03-05,https://www.puertoviejosatellite.com/en/puerto-viejo/aloe-boutique/
Bambu Store,shopping,Puerto Viejo,9.657189,-82.754144,bambupuertoviejo,https://www.instagram.com/bambupuertoviejo,+506 2750 0211,+50627500211,,https://www.facebook.com/bambupuertoviejo,3007132759593543579,2026-01-20,https://www.puertoviejosatellite.com/en/puerto-viejo/bambu-store/
Cantik at Home,shopping,Puerto Viejo,9.657071,-82.754024,,,,,,,14335650359629993448,2025-12-10,https://www.puertoviejosatellite.com/en/puerto-viejo/cantik-at-home/
Luna May,shopping,Puerto Viejo,9.655884,-82.755122,lunamay.cr,https://www.instagram.com/lunamay.cr,,,,https://www.facebook.com/Luna-May-485891968109411/,12439179219911805867,2026-03-29,https://www.puertoviejosatellite.com/en/puerto-viejo/luna-may/
Marea Santa,shopping,Puerto Viejo,9.656735,-82.754281,mareasanta_cr,https://www.instagram.com/mareasanta_cr,+506 7010 0062,+50670100062,,https://www.facebook.com/p/Marea-Santa-100064035669917/,4573919399282068853,2026-03-30,https://www.puertoviejosatellite.com/en/puerto-viejo/marea-santa/
Naturama Store,shopping,Puerto Viejo,9.657574,-82.75287,naturamastore,https://www.instagram.com/naturamastore,+506 8918 0137,+50689180137,,https://www.facebook.com/naturamastore,1867018045151554137,2026-03-31,https://www.puertoviejosatellite.com/en/puerto-viejo/naturama-store/
Passion Fruit Store,shopping,Puerto Viejo,9.657111,-82.753955,passionfruit_puertoviejo,https://www.instagram.com/passionfruit_puertoviejo,+506 6179 4448,+50661794448,,https://www.facebook.com/passionfruitcr,3589518174440329979,2026-02-26,https://www.puertoviejosatellite.com/en/puerto-viejo/passion-fruit-store/
Reggaeland,shopping,Puerto Viejo,9.657476,-82.753243,reggaelandpuertoviejo,https://www.instagram.com/reggaelandpuertoviejo,+506 2750 2096,+50627502096,,https://www.facebook.com/reggaeland.pv,4399460039894613264,2026-03-01,https://www.puertoviejosatellite.com/en/puerto-viejo/reggaeland/
Samoa Boutique,shopping,Puerto Viejo,9.657507,-82.753033,samoa_boutique,https://www.instagram.com/samoa_boutique,+506 2756 8444,+50627568444,,https://www.facebook.com/Samoaboutique,6498487977379373493,2026-03-19,https://www.puertoviejosatellite.com/en/puerto-viejo/samoa-boutique/
"Colono Hone Creek - Hone Creek, Limón, Costa Rica",shopping,Hone Creek,9.653885,-82.796903,,,+506 2713-1300,+50627131300,,https://www.facebook.com/colonoconstruccion,,2025-08-15,https://www.puertoviejosatellite.com/en/hone-creek/colono-hone-creek/
"Cervecera Tierra y Libertad - Hone Creek, Limón, Costa Rica",shopping,Hone Creek,9.647826,-82.799411,cerveceratyl,https://www.instagram.com/cerveceratyl,+506 8316 7699,+50683167699,,https://www.facebook.com/cerveceratierraylibertad,18282199755586445336,2025-08-28,https://www.puertoviejosatellite.com/en/hone-creek/cervecera-tierra-y-libertad/
Electro Office,shopping,Puerto Viejo,9.656982,-82.753775,,,+506 2750 0330,+50627500330,,https://www.facebook.com/Electro-Office-650054101741154/,13937010489015814564,2025-01-19,https://www.puertoviejosatellite.com/en/puerto-viejo/electro-office/
Librería Caribe,shopping,Puerto Viejo,9.655752,-82.754918,,,+506 2750 0497,+50627500497,,https://www.facebook.com/libreriacaribe.caribe,9017085322259588567,2026-03-24,https://www.puertoviejosatellite.com/en/puerto-viejo/libreria-caribe/
La Pitaya,shopping,Puerto Viejo,9.657295,-82.753781,lapitayapuertoviejo,https://www.instagram.com/lapitayapuertoviejo,,,,,1577213594063101362,2026-02-18,https://www.puertoviejosatellite.com/en/puerto-viejo/la-pitaya/
Tienda del Mar,shopping,Puerto Viejo,9.657326,-82.753787,tiendadelmarcr,https://www.instagram.com/tiendadelmarcr,+506 2750 0762,+50627500762,,,6465038343017776200,2026-02-08,https://www.puertoviejosatellite.com/en/puerto-viejo/tienda-del-mar/
Wanderlust,shopping,Puerto Viejo,9.656391,-82.755545,wanderlustpuertoviejo,https://www.instagram.com/wanderlustpuertoviejo,,,,https://www.facebook.com/Wanderlust-Puerto-Viejo-1468490133200683/,7346571536131451543,2026-04-01,https://www.puertoviejosatellite.com/en/puerto-viejo/wanderlust/
El Diamante,shopping,Puerto Viejo,9.657951,-82.7522,,,+506 2750-0116,+50627500116,,,18223909293549188491,2026-02-21,https://www.puertoviejosatellite.com/en/puerto-viejo/el-diamante/
Mariscos Mopri,shopping,Puerto Viejo,9.655029,-82.755604,,,+506 2102 0664,+50621020664,http://www.anrdoezrs.net/links/2369666/type/dlg/https://www.tripadvisor.com/Restaurant_Review-g309265-d2702923-Reviews-Mopri-Puerto_Viejo_de_Talamanca_Province_of_Limon.html,https://www.facebook.com/Pescaderia-y-Marisquer%C3%ADa-Mopr%C3%AD-265861103432042/,15490944357828439393,2026-03-27,https://www.puertoviejosatellite.com/en/puerto-viejo/mariscos-mopri/
Mega Super,shopping,Puerto Viejo,9.655225,-82.754146,,,,,,,9205429348892041088,2026-03-03,https://www.puertoviejosatellite.com/en/puerto-viejo/mega-super/
Old Harbour Supermarket,shopping,Puerto Viejo,9.655577,-82.755376,,,+506 2750 1908,+50627501908,,,15754056459834286605,2026-03-25,https://www.puertoviejosatellite.com/en/puerto-viejo/old-harbour-supermarket/
"Pali Supermarket - Hone Creek, Limón, Costa Rica",shopping,Hone Creek,9.65598,-82.798142,,,,,,,,2025-08-24,https://www.puertoviejosatellite.com/en/hone-creek/pali-supermarket/
"Cacao Trails Bole - Hone Creek, Limón, Costa Rica",tour_company,Hone Creek,9.674927,-82.803435,cacaotrailsbole,https://www.instagram.com/cacaotrailsbole,+506 2756 8186,+50627568186,,https://www.facebook.com/cacaotrails,904701918920547958,2025-08-28,https://www.puertoviejosatellite.com/en/hone-creek/cacao-trails-bole/
Exploradores Outdoors,tour_company,Puerto Viejo,9.65901,-82.750715,,,+506 2750 2020,+50627502020,,https://www.facebook.com/raftingcr,16305114679791493305,2026-03-27,https://www.puertoviejosatellite.com/en/puerto-viejo/exploradores-outdoors/
Hidden Garden Ethnobotanical Sanctuary,tour_company,Puerto Viejo,9.653993,-82.746475,,,+506 8340 8889,+50683408889,,https://www.facebook.com/hiddengardenwellness,,2026-01-27,https://www.puertoviejosatellite.com/en/puerto-viejo/hidden-garden-ethnobotanical-sanctuary/
"Kinkaju Tours - Hone Creek, Limón, Costa Rica",tour_company,Hone Creek,9.661756,-82.815059,kinkaju2026,https://www.instagram.com/kinkaju2026,+506 8510 3596,+50685103596,,https://www.facebook.com/profile.php?id=61588504613214,3404977970967347049,2026-02-25,https://www.puertoviejosatellite.com/en/hone-creek/kinkaju-tours/
Main Bus Stop,tour_company,Puerto Viejo,9.656686,-82.755987,,,,,,,7826458106781310635,2026-02-01,https://www.puertoviejosatellite.com/en/puerto-viejo/main-bus-stop/
Adobe EasyCar Rent a Car,tour_company,Puerto Viejo,9.656036,-82.754855,,,+506 2750 0715,+50627500715,,,15441903368463150081,2026-03-05,https://www.puertoviejosatellite.com/en/puerto-viejo/adobe-easycar-rent-a-car/
Alamo Enterprise Car Rental,tour_company,Puerto Viejo,9.656145,-82.753846,,,+506 2242 7878,+50622427878,,,7608545223870319936,2025-06-28,https://www.puertoviejosatellite.com/en/puerto-viejo/alamo-enterprise-car-rental/
Caribe Shuttle,tour_company,Puerto Viejo,9.6562,-82.755075,,,+506 2750-0626,+50627500626,,,,2026-03-24,https://www.puertoviejosatellite.com/en/puerto-viejo/caribe-shuttle/
ATEC,tour_company,Puerto Viejo,9.656059,-82.754844,atec_ong,https://www.instagram.com/atec_ong,+506 8706 4758,+50687064758,http://www.anrdoezrs.net/links/2369666/type/dlg/https://www.tripadvisor.com/Attraction_Review-g309265-d2209012-Reviews-ATEC_Talamancan_Association_of_Ecotourism_and_Conservation_Day_Tours-Puerto_Viejo.html,https://www.facebook.com/ongatec,11890875733593568965,2026-02-16,https://www.puertoviejosatellite.com/en/puerto-viejo/atec/
Gecko Trail Costa Rica,tour_company,Puerto Viejo,9.65738,-82.754755,,,+506 8724 9252,+50687249252,http://www.anrdoezrs.net/links/2369666/type/dlg/https://www.tripadvisor.com/Attraction_Review-g309265-d1758265-Reviews-Gecko_Trail_Day_Tours-Puerto_Viejo_de_Talamanca_Province_of_Limon.html,https://www.facebook.com/GeckoTrail,831507804855121720,2026-03-27,https://www.puertoviejosatellite.com/en/puerto-viejo/gecko-trail-costa-rica/
Douglasville Guesthouse,vacation_rental,Puerto Viejo,9.654025,-82.753971,douglasguesthouse,https://www.instagram.com/douglasguesthouse,+506 8875 8494,+50688758494,,https://www.facebook.com/rentatdouglasville,8689012956679917112,2026-03-27,https://www.puertoviejosatellite.com/en/puerto-viejo/douglasville-guesthouse/
Caribbean Comfort,vacation_rental,Puerto Viejo,9.65623,-82.755404,,,+506 8888 5223,+50688885223,,,9201616901711710091,2026-03-12,https://www.puertoviejosatellite.com/en/puerto-viejo/caribbean-comfort/
Casa Arlecchino,vacation_rental,Puerto Viejo,9.655215,-82.744656,,,+506 6299 5955,+50662995955,,,13639343625190683419,2026-01-25,https://www.puertoviejosatellite.com/en/puerto-viejo/casa-arlecchino/
Casa Kinkaju,vacation_rental,Puerto Viejo,9.657338,-82.748652,,,+506 2750 2004,+50627502004,,https://www.facebook.com/Casa-Kinkaju-142674086423136/,,2026-03-24,https://www.puertoviejosatellite.com/en/puerto-viejo/casa-kinkaju/
Coconut Grove Apartamentos,vacation_rental,Puerto Viejo,9.658976,-82.749264,,,+506 2750 0093,+50627500093,,https://www.facebook.com/coconutgrove.pv,,2026-02-26,https://www.puertoviejosatellite.com/en/puerto-viejo/coconut-grove-apartamentos/
Colibri Ecolodge,vacation_rental,Puerto Viejo,9.652904,-82.755403,colibriecolodge_,https://www.instagram.com/colibriecolodge_,+506 8774 1940,+50687741940,,,656242078778664441,2026-03-24,https://www.puertoviejosatellite.com/en/puerto-viejo/colibri-ecolodge/
Estrellas Cabinas,vacation_rental,Puerto Viejo,9.652322,-82.749268,,,,,,,,2026-03-20,https://www.puertoviejosatellite.com/en/puerto-viejo/estrellas-cabinas/
"Finca Don Litos - Hone Creek, Limón, Costa Rica",vacation_rental,Hone Creek,9.64782,-82.785292,,,+506 8536 6430,+50685366430,,https://www.facebook.com/Finca-Don-Litos-194849804622780/,15727569979150542837,2025-04-22,https://www.puertoviejosatellite.com/en/hone-creek/finca-don-litos/
"Villas Diwo - Hone Creek, Limón, Costa Rica",vacation_rental,Hone Creek,9.648052,-82.784814,villasdiwo,https://www.instagram.com/villasdiwo,+506 8685 4500,+50686854500,,https://www.facebook.com/villasdiwo,5114266921704520486,2026-02-18,https://www.puertoviejosatellite.com/en/hone-creek/villas-diwo/
